{"type":"FeatureCollection","crs":{"type":"name","properties":{"name":"EPSG:4326"}},"features":[{"type":"Feature","id":1,"geometry":{"type":"Point","coordinates":[51.389600399838628,35.689252300053681]},"properties":{"OBJECTID":1,"NAME":"تهران","NAME_EN":"Tehran","INT_NAME":"Tehran","NAME_RU":"Тегеран","OFFICIAL_S":" ","PLACE":"city","A_CNTR":" ","A_PLACE":" ","A_DSTRCT":" ","A_PSTCD":" ","POPULATION":"8693706","OSM_TYPE":"node","OSM_ID":25960293}},{"type":"Feature","id":2,"geometry":{"type":"Point","coordinates":[50.00666299969771,36.280407399981584]},"properties":{"OBJECTID":2,"NAME":"قزوین","NAME_EN":"Qazvin","INT_NAME":"Qazvin","NAME_RU":"Казвин","OFFICIAL_S":" ","PLACE":"city","A_CNTR":" ","A_PLACE":" ","A_DSTRCT":" ","A_PSTCD":" ","POPULATION":"1000000","OSM_TYPE":"node","OSM_ID":26082288}},{"type":"Feature","id":3,"geometry":{"type":"Point","coordinates":[52.537804099779407,29.606021799566463]},"properties":{"OBJECTID":3,"NAME":"شیراز","NAME_EN":"Shiraz","INT_NAME":" ","NAME_RU":"Шираз","OFFICIAL_S":" ","PLACE":"city","A_CNTR":" ","A_PLACE":" ","A_DSTRCT":" ","A_PSTCD":" ","POPULATION":"1713000","OSM_TYPE":"node","OSM_ID":26082452}},{"type":"Feature","id":4,"geometry":{"type":"Point","coordinates":[51.6650002000992,32.670787700092319]},"properties":{"OBJECTID":4,"NAME":"اصفهان","NAME_EN":"Isfahan","INT_NAME":" ","NAME_RU":"Исфахан","OFFICIAL_S":" ","PLACE":"city","A_CNTR":" ","A_PLACE":" ","A_DSTRCT":" ","A_PSTCD":" ","POPULATION":"1808968","OSM_TYPE":"node","OSM_ID":26038567}},{"type":"Feature","id":9,"geometry":{"type":"Point","coordinates":[60.850301699963552,29.49288740003351]},"properties":{"OBJECTID":9,"NAME":"زاهدان","NAME_EN":"Zahedan","INT_NAME":" ","NAME_RU":"Захедан","OFFICIAL_S":" ","PLACE":"city","A_CNTR":" ","A_PLACE":" ","A_DSTRCT":" ","A_PSTCD":" ","POPULATION":"672589","OSM_TYPE":"node","OSM_ID":26604766}},{"type":"Feature","id":10,"geometry":{"type":"Point","coordinates":[48.514849900002957,34.798327099815879]},"properties":{"OBJECTID":10,"NAME":"همدان","NAME_EN":"Hamedan","INT_NAME":" ","NAME_RU":"Хамадан","OFFICIAL_S":" ","PLACE":"city","A_CNTR":" ","A_PLACE":" ","A_DSTRCT":" ","A_PSTCD":" ","POPULATION":"526000","OSM_TYPE":"node","OSM_ID":27557313}},{"type":"Feature","id":11,"geometry":{"type":"Point","coordinates":[46.296195199748695,38.07399640021373]},"properties":{"OBJECTID":11,"NAME":"تبریز","NAME_EN":"Tabriz","INT_NAME":"Tabriz","NAME_RU":"Тебриз","OFFICIAL_S":" ","PLACE":"city","A_CNTR":" ","A_PLACE":" ","A_DSTRCT":" ","A_PSTCD":" ","POPULATION":"1800000","OSM_TYPE":"node","OSM_ID":26038590}},{"type":"Feature","id":13,"geometry":{"type":"Point","coordinates":[59.605923199995743,36.297494499971265]},"properties":{"OBJECTID":13,"NAME":"مشهد","NAME_EN":"Mashhad","INT_NAME":"Mashhad","NAME_RU":"Мешхед","OFFICIAL_S":" ","PLACE":"city","A_CNTR":" ","A_PLACE":" ","A_DSTRCT":" ","A_PSTCD":" ","POPULATION":"3312090","OSM_TYPE":"node","OSM_ID":26038568}},{"type":"Feature","id":17,"geometry":{"type":"Point","coordinates":[50.880096899652244,34.642311700424671]},"properties":{"OBJECTID":17,"NAME":"قم","NAME_EN":"Qom","INT_NAME":" ","NAME_RU":"Кум","OFFICIAL_S":" ","PLACE":"city","A_CNTR":" ","A_PLACE":" ","A_DSTRCT":" ","A_PSTCD":" ","POPULATION":"1075000","OSM_TYPE":"node","OSM_ID":26082451}},{"type":"Feature","id":18,"geometry":{"type":"Point","coordinates":[49.468590399727248,37.4716356001029]},"properties":{"OBJECTID":18,"NAME":"بندر انزلی","NAME_EN":"Bandar-e Anzali","INT_NAME":" ","NAME_RU":"Энзели","OFFICIAL_S":" ","PLACE":"city","A_CNTR":" ","A_PLACE":" ","A_DSTRCT":" ","A_PSTCD":" ","POPULATION":"139016","OSM_TYPE":"node","OSM_ID":27442136}},{"type":"Feature","id":19,"geometry":{"type":"Point","coordinates":[45.068286300072771,37.549347299638214]},"properties":{"OBJECTID":19,"NAME":"ارومیه","NAME_EN":"Urmia","INT_NAME":" ","NAME_RU":"Урмия","OFFICIAL_S":" ","PLACE":"city","A_CNTR":" ","A_PLACE":" ","A_DSTRCT":" ","A_PSTCD":" ","POPULATION":"667499","OSM_TYPE":"node","OSM_ID":26399215}},{"type":"Feature","id":26,"geometry":{"type":"Point","coordinates":[50.609744299759654,35.95588969984982]},"properties":{"OBJECTID":26,"NAME":"نظرآباد","NAME_EN":"Nazarabad","INT_NAME":" ","NAME_RU":" ","OFFICIAL_S":" ","PLACE":"city","A_CNTR":" ","A_PLACE":" ","A_DSTRCT":" ","A_PSTCD":" ","POPULATION":"119512","OSM_TYPE":"node","OSM_ID":29070193}},{"type":"Feature","id":71,"geometry":{"type":"Point","coordinates":[51.365619900138313,32.633412099788643]},"properties":{"OBJECTID":71,"NAME":"نجف آباد","NAME_EN":"Najafabad","INT_NAME":" ","NAME_RU":"Неджефабад","OFFICIAL_S":" ","PLACE":"city","A_CNTR":" ","A_PLACE":" ","A_DSTRCT":" ","A_PSTCD":" ","POPULATION":"400000","OSM_TYPE":"node","OSM_ID":1485488802}},{"type":"Feature","id":175,"geometry":{"type":"Point","coordinates":[54.964991499757957,36.419502600065016]},"properties":{"OBJECTID":175,"NAME":"شاهرود","NAME_EN":"Shahrud","INT_NAME":" ","NAME_RU":"Имамшехр","OFFICIAL_S":" ","PLACE":"city","A_CNTR":" ","A_PLACE":" ","A_DSTRCT":" ","A_PSTCD":" ","POPULATION":"140000","OSM_TYPE":"node","OSM_ID":2048982952}},{"type":"Feature","id":321,"geometry":{"type":"Point","coordinates":[48.756093600039662,33.894328099762049]},"properties":{"OBJECTID":321,"NAME":"بروجرد","NAME_EN":"Borujerd","INT_NAME":" ","NAME_RU":"Боруджерд","OFFICIAL_S":" ","PLACE":"city","A_CNTR":" ","A_PLACE":" ","A_DSTRCT":" ","A_PSTCD":" ","POPULATION":"234997","OSM_TYPE":"node","OSM_ID":2411336212}},{"type":"Feature","id":812,"geometry":{"type":"Point","coordinates":[48.353827599763974,33.484210900212929]},"properties":{"OBJECTID":812,"NAME":"خرم آباد","NAME_EN":"Khorramabad","INT_NAME":" ","NAME_RU":"Хорремабад","OFFICIAL_S":" ","PLACE":"city","A_CNTR":" ","A_PLACE":" ","A_DSTRCT":" ","A_PSTCD":" ","POPULATION":"328544","OSM_TYPE":"node","OSM_ID":2124202500}},{"type":"Feature","id":815,"geometry":{"type":"Point","coordinates":[46.420274300019003,33.637936499769694]},"properties":{"OBJECTID":815,"NAME":"ایلام","NAME_EN":"Ilam","INT_NAME":" ","NAME_RU":"Илам","OFFICIAL_S":" ","PLACE":"city","A_CNTR":" ","A_PLACE":" ","A_DSTRCT":" ","A_PSTCD":" ","POPULATION":"172213","OSM_TYPE":"node","OSM_ID":2094150295}},{"type":"Feature","id":817,"geometry":{"type":"Point","coordinates":[55.994177599916384,30.402183999591955]},"properties":{"OBJECTID":817,"NAME":"رفسنجان","NAME_EN":"Rafsanjan","INT_NAME":"Rafsanjan","NAME_RU":" ","OFFICIAL_S":" ","PLACE":"city","A_CNTR":" ","A_PLACE":" ","A_DSTRCT":" ","A_PSTCD":" ","POPULATION":"151420","OSM_TYPE":"node","OSM_ID":2108742744}},{"type":"Feature","id":819,"geometry":{"type":"Point","coordinates":[53.38829059983135,35.583407400331339]},"properties":{"OBJECTID":819,"NAME":"سمنان","NAME_EN":"Semnan","INT_NAME":" ","NAME_RU":"Семнан","OFFICIAL_S":" ","PLACE":"city","A_CNTR":" ","A_PLACE":" ","A_DSTRCT":" ","A_PSTCD":" ","POPULATION":"153680","OSM_TYPE":"node","OSM_ID":2073160712}},{"type":"Feature","id":821,"geometry":{"type":"Point","coordinates":[54.432085799919776,36.839277600181163]},"properties":{"OBJECTID":821,"NAME":"گرگان","NAME_EN":"Gorgan","INT_NAME":" ","NAME_RU":"Горган","OFFICIAL_S":" ","PLACE":"city","A_CNTR":" ","A_PLACE":" ","A_DSTRCT":" ","A_PSTCD":" ","POPULATION":"329536","OSM_TYPE":"node","OSM_ID":2074455167}},{"type":"Feature","id":822,"geometry":{"type":"Point","coordinates":[52.349900899906686,36.471894700380176]},"properties":{"OBJECTID":822,"NAME":"آمل","NAME_EN":"Amol","INT_NAME":" ","NAME_RU":"Амоль","OFFICIAL_S":" ","PLACE":"city","A_CNTR":" ","A_PLACE":" ","A_DSTRCT":" ","A_PSTCD":" ","POPULATION":"225000","OSM_TYPE":"node","OSM_ID":2072015069}},{"type":"Feature","id":832,"geometry":{"type":"Point","coordinates":[59.219449400069834,35.274085300196475]},"properties":{"OBJECTID":832,"NAME":"تربت حیدریه","NAME_EN":"Torbate Heydariye","INT_NAME":" ","NAME_RU":"Торбете-Хейдерие","OFFICIAL_S":" ","PLACE":"city","A_CNTR":" ","A_PLACE":" ","A_DSTRCT":" ","A_PSTCD":" ","POPULATION":"131150","OSM_TYPE":"node","OSM_ID":2055287338}},{"type":"Feature","id":1048,"geometry":{"type":"Point","coordinates":[46.997863900298796,35.312604699647238]},"properties":{"OBJECTID":1048,"NAME":"سنندج","NAME_EN":"Sanandaj","INT_NAME":" ","NAME_RU":"Сенендедж","OFFICIAL_S":" ","PLACE":"city","A_CNTR":" ","A_PLACE":" ","A_DSTRCT":" ","A_PSTCD":" ","POPULATION":"373987","OSM_TYPE":"node","OSM_ID":1932879629}},{"type":"Feature","id":1052,"geometry":{"type":"Point","coordinates":[51.442793500219921,33.987388800252972]},"properties":{"OBJECTID":1052,"NAME":"کاشان","NAME_EN":"Kashan","INT_NAME":" ","NAME_RU":" ","OFFICIAL_S":" ","PLACE":"city","A_CNTR":" ","A_PLACE":" ","A_DSTRCT":" ","A_PSTCD":" ","POPULATION":"275904","OSM_TYPE":"node","OSM_ID":1909925519}},{"type":"Feature","id":1494,"geometry":{"type":"Point","coordinates":[52.474863299901415,29.815390900269904]},"properties":{"OBJECTID":1494,"NAME":"شهر صدرا","NAME_EN":"Sadra city","INT_NAME":" ","NAME_RU":" ","OFFICIAL_S":" ","PLACE":"city","A_CNTR":" ","A_PLACE":" ","A_DSTRCT":" ","A_PSTCD":" ","POPULATION":"91863","OSM_TYPE":"node","OSM_ID":1500164904}},{"type":"Feature","id":1499,"geometry":{"type":"Point","coordinates":[54.364239100254338,31.88826780001898]},"properties":{"OBJECTID":1499,"NAME":"یزد","NAME_EN":"Yazd","INT_NAME":" ","NAME_RU":"Йезд","OFFICIAL_S":" ","PLACE":"city","A_CNTR":" ","A_PLACE":" ","A_DSTRCT":" ","A_PSTCD":" ","POPULATION":"486152","OSM_TYPE":"node","OSM_ID":1487757399}},{"type":"Feature","id":6287,"geometry":{"type":"Point","coordinates":[49.584610200300574,37.27936070043603]},"properties":{"OBJECTID":6287,"NAME":"رشت","NAME_EN":"Rasht","INT_NAME":" ","NAME_RU":"Решт","OFFICIAL_S":" ","PLACE":"city","A_CNTR":" ","A_PLACE":" ","A_DSTRCT":" ","A_PSTCD":" ","POPULATION":"956971","OSM_TYPE":"node","OSM_ID":4526985879}},{"type":"Feature","id":7673,"geometry":{"type":"Point","coordinates":[51.388903800270214,35.60937990016231]},"properties":{"OBJECTID":7673,"NAME":"صالح آباد","NAME_EN":"Salehabad","INT_NAME":" ","NAME_RU":" ","OFFICIAL_S":" ","PLACE":"city","A_CNTR":" ","A_PLACE":" ","A_DSTRCT":" ","A_PSTCD":" ","POPULATION":" ","OSM_TYPE":"node","OSM_ID":7880353221}},{"type":"Feature","id":7721,"geometry":{"type":"Point","coordinates":[45.497394199982409,33.993891100094231]},"properties":{"OBJECTID":7721,"NAME":"نفت شهر","NAME_EN":" ","INT_NAME":" ","NAME_RU":" ","OFFICIAL_S":" ","PLACE":"city","A_CNTR":" ","A_PLACE":" ","A_DSTRCT":" ","A_PSTCD":" ","POPULATION":" ","OSM_TYPE":"node","OSM_ID":7834678757}},{"type":"Feature","id":10423,"geometry":{"type":"Point","coordinates":[51.231867600209625,35.547851300297339]},"properties":{"OBJECTID":10423,"NAME":"اسلامشهر","NAME_EN":"Eslamshahr","INT_NAME":" ","NAME_RU":" ","OFFICIAL_S":" ","PLACE":"city","A_CNTR":" ","A_PLACE":" ","A_DSTRCT":" ","A_PSTCD":" ","POPULATION":"448129","OSM_TYPE":"node","OSM_ID":6149532933}},{"type":"Feature","id":10636,"geometry":{"type":"Point","coordinates":[48.845666600133541,32.054787399618874]},"properties":{"OBJECTID":10636,"NAME":"شوشتر","NAME_EN":"Shoushtar","INT_NAME":" ","NAME_RU":" ","OFFICIAL_S":" ","PLACE":"city","A_CNTR":" ","A_PLACE":" ","A_DSTRCT":" ","A_PSTCD":" ","POPULATION":"101878","OSM_TYPE":"node","OSM_ID":5922679170}},{"type":"Feature","id":10653,"geometry":{"type":"Point","coordinates":[52.857931100140206,36.463639899761631]},"properties":{"OBJECTID":10653,"NAME":"قائمشهر","NAME_EN":"Qaem Shahr","INT_NAME":" ","NAME_RU":"Каэмшехр","OFFICIAL_S":" ","PLACE":"city","A_CNTR":" ","A_PLACE":" ","A_DSTRCT":" ","A_PSTCD":" ","POPULATION":"204953","OSM_TYPE":"node","OSM_ID":5853818620}},{"type":"Feature","id":10785,"geometry":{"type":"Point","coordinates":[51.11007690042868,35.72042710003069]},"properties":{"OBJECTID":10785,"NAME":"شهرقدس","NAME_EN":"Qods","INT_NAME":" ","NAME_RU":" ","OFFICIAL_S":" ","PLACE":"city","A_CNTR":" ","A_PLACE":" ","A_DSTRCT":" ","A_PSTCD":" ","POPULATION":"316631","OSM_TYPE":"node","OSM_ID":5731891666}},{"type":"Feature","id":11684,"geometry":{"type":"Point","coordinates":[48.679331599873478,31.322993600374389]},"properties":{"OBJECTID":11684,"NAME":"اهواز","NAME_EN":"Ahwaz","INT_NAME":" ","NAME_RU":"Ахваз","OFFICIAL_S":" ","PLACE":"city","A_CNTR":" ","A_PLACE":" ","A_DSTRCT":" ","A_PSTCD":" ","POPULATION":"1060000","OSM_TYPE":"node","OSM_ID":4952774020}},{"type":"Feature","id":11857,"geometry":{"type":"Point","coordinates":[56.278142299627461,27.179346600365363]},"properties":{"OBJECTID":11857,"NAME":"بندرعباس","NAME_EN":"Bandar Abbas","INT_NAME":" ","NAME_RU":"Бенде\u0301р-Абба\u0301с","OFFICIAL_S":" ","PLACE":"city","A_CNTR":" ","A_PLACE":" ","A_DSTRCT":" ","A_PSTCD":" ","POPULATION":"435751","OSM_TYPE":"node","OSM_ID":4736094012}},{"type":"Feature","id":11901,"geometry":{"type":"Point","coordinates":[49.688841500434933,34.086520299572214]},"properties":{"OBJECTID":11901,"NAME":"اراک","NAME_EN":"Arak","INT_NAME":" ","NAME_RU":"Эрак","OFFICIAL_S":" ","PLACE":"city","A_CNTR":" ","A_PLACE":" ","A_DSTRCT":" ","A_PSTCD":" ","POPULATION":"591756","OSM_TYPE":"node","OSM_ID":4698589016}},{"type":"Feature","id":31548,"geometry":{"type":"Point","coordinates":[51.058602200331336,35.658901500304069]},"properties":{"OBJECTID":31548,"NAME":"شهریار","NAME_EN":"Shahriyar","INT_NAME":" ","NAME_RU":" ","OFFICIAL_S":" ","PLACE":"city","A_CNTR":" ","A_PLACE":" ","A_DSTRCT":" ","A_PSTCD":" ","POPULATION":"309607","OSM_TYPE":"node","OSM_ID":4327958633}},{"type":"Feature","id":31799,"geometry":{"type":"Point","coordinates":[51.833047600366513,32.704057899752343]},"properties":{"OBJECTID":31799,"NAME":"قهجاورستان","NAME_EN":"Qahjavarestan","INT_NAME":" ","NAME_RU":" ","OFFICIAL_S":" ","PLACE":"city","A_CNTR":" ","A_PLACE":" ","A_DSTRCT":" ","A_PSTCD":" ","POPULATION":"20000","OSM_TYPE":"node","OSM_ID":4226172706}},{"type":"Feature","id":40132,"geometry":{"type":"Point","coordinates":[51.186798100152259,35.667350899824214]},"properties":{"OBJECTID":40132,"NAME":"شهرک سعیدآباد","NAME_EN":"Saidabad","INT_NAME":" ","NAME_RU":" ","OFFICIAL_S":" ","PLACE":"city","A_CNTR":" ","A_PLACE":" ","A_DSTRCT":" ","A_PSTCD":" ","POPULATION":" ","OSM_TYPE":"node","OSM_ID":3305243513}},{"type":"Feature","id":42190,"geometry":{"type":"Point","coordinates":[51.646030700356562,35.328325500121764]},"properties":{"OBJECTID":42190,"NAME":"ورامین","NAME_EN":"Varamin","INT_NAME":" ","NAME_RU":" ","OFFICIAL_S":" ","PLACE":"city","A_CNTR":" ","A_PLACE":" ","A_DSTRCT":" ","A_PSTCD":" ","POPULATION":"225628","OSM_TYPE":"node","OSM_ID":3248971788}},{"type":"Feature","id":44073,"geometry":{"type":"Point","coordinates":[48.821574900161579,34.29226229956555]},"properties":{"OBJECTID":44073,"NAME":"ملایر","NAME_EN":"Malayer","INT_NAME":"Malayer","NAME_RU":"Мелайер","OFFICIAL_S":" ","PLACE":"city","A_CNTR":" ","A_PLACE":" ","A_DSTRCT":" ","A_PSTCD":" ","POPULATION":"170237","OSM_TYPE":"node","OSM_ID":2513410403}},{"type":"Feature","id":44703,"geometry":{"type":"Point","coordinates":[51.817214899947714,35.737122699952693]},"properties":{"OBJECTID":44703,"NAME":"پردیس","NAME_EN":"Pardis","INT_NAME":" ","NAME_RU":" ","OFFICIAL_S":" ","PLACE":"city","A_CNTR":" ","A_PLACE":" ","A_DSTRCT":" ","A_PSTCD":" ","POPULATION":"169060","OSM_TYPE":"node","OSM_ID":821096717}},{"type":"Feature","id":44724,"geometry":{"type":"Point","coordinates":[51.632144399944139,35.820484499959775]},"properties":{"OBJECTID":44724,"NAME":"لواسان","NAME_EN":"Lavasan","INT_NAME":" ","NAME_RU":"Левасан","OFFICIAL_S":" ","PLACE":"city","A_CNTR":" ","A_PLACE":" ","A_DSTRCT":" ","A_PSTCD":" ","POPULATION":"15706","OSM_TYPE":"node","OSM_ID":821096700}},{"type":"Feature","id":44844,"geometry":{"type":"Point","coordinates":[46.175888900252573,35.521906299935836]},"properties":{"OBJECTID":44844,"NAME":"مریوان","NAME_EN":"Marivan","INT_NAME":"Marivan","NAME_RU":"Мериван","OFFICIAL_S":" ","PLACE":"city","A_CNTR":" ","A_PLACE":" ","A_DSTRCT":" ","A_PSTCD":" ","POPULATION":"110464","OSM_TYPE":"node","OSM_ID":819610937}},{"type":"Feature","id":45031,"geometry":{"type":"Point","coordinates":[58.464247999845384,35.244490799710718]},"properties":{"OBJECTID":45031,"NAME":"کاشمر","NAME_EN":"Kashmar","INT_NAME":" ","NAME_RU":"Кашмер","OFFICIAL_S":" ","PLACE":"city","A_CNTR":" ","A_PLACE":" ","A_DSTRCT":" ","A_PSTCD":" ","POPULATION":"92000","OSM_TYPE":"node","OSM_ID":681298011}},{"type":"Feature","id":45206,"geometry":{"type":"Point","coordinates":[57.737338200097895,28.669736700088663]},"properties":{"OBJECTID":45206,"NAME":"جیرفت","NAME_EN":"Jiroft","INT_NAME":"Jiroft","NAME_RU":"Джирофт","OFFICIAL_S":" ","PLACE":"city","A_CNTR":" ","A_PLACE":" ","A_DSTRCT":" ","A_PSTCD":" ","POPULATION":"111034","OSM_TYPE":"node","OSM_ID":344623598}},{"type":"Feature","id":45217,"geometry":{"type":"Point","coordinates":[51.58026379983454,30.667666300259611]},"properties":{"OBJECTID":45217,"NAME":"یاسوج","NAME_EN":"Yasuj","INT_NAME":" ","NAME_RU":"Ясудж","OFFICIAL_S":" ","PLACE":"city","A_CNTR":" ","A_PLACE":" ","A_DSTRCT":" ","A_PSTCD":" ","POPULATION":"108505","OSM_TYPE":"node","OSM_ID":344650643}},{"type":"Feature","id":45266,"geometry":{"type":"Point","coordinates":[60.688251499806938,27.206990299562733]},"properties":{"OBJECTID":45266,"NAME":"ایرانشهر","NAME_EN":"Iranshahr","INT_NAME":" ","NAME_RU":"Ираншехр","OFFICIAL_S":" ","PLACE":"city","A_CNTR":" ","A_PLACE":" ","A_DSTRCT":" ","A_PSTCD":" ","POPULATION":"113750","OSM_TYPE":"node","OSM_ID":347029888}},{"type":"Feature","id":45278,"geometry":{"type":"Point","coordinates":[60.646911499965825,25.293548800436838]},"properties":{"OBJECTID":45278,"NAME":"چابهار","NAME_EN":"Chabahar","INT_NAME":"Chabahar","NAME_RU":"Чехбехар","OFFICIAL_S":" ","PLACE":"city","A_CNTR":" ","A_PLACE":" ","A_DSTRCT":" ","A_PSTCD":" ","POPULATION":"106739","OSM_TYPE":"node","OSM_ID":291618503}},{"type":"Feature","id":45326,"geometry":{"type":"Point","coordinates":[60.62631299974521,35.243254599720046]},"properties":{"OBJECTID":45326,"NAME":"تربت جام","NAME_EN":"Torbat-e Jam","INT_NAME":" ","NAME_RU":"Торбете-Джам","OFFICIAL_S":" ","PLACE":"city","A_CNTR":" ","A_PLACE":" ","A_DSTRCT":" ","A_PSTCD":" ","POPULATION":"95000","OSM_TYPE":"node","OSM_ID":280785801}},{"type":"Feature","id":45363,"geometry":{"type":"Point","coordinates":[58.510805599998491,37.105992999977047]},"properties":{"OBJECTID":45363,"NAME":"قوچان","NAME_EN":"Quchan","INT_NAME":" ","NAME_RU":"Кучан","OFFICIAL_S":" ","PLACE":"city","A_CNTR":" ","A_PLACE":" ","A_DSTRCT":" ","A_PSTCD":" ","POPULATION":"103760","OSM_TYPE":"node","OSM_ID":265555072}},{"type":"Feature","id":45374,"geometry":{"type":"Point","coordinates":[47.599999600101512,35.872080499715366]},"properties":{"OBJECTID":45374,"NAME":"بیجار","NAME_EN":"Bijar","INT_NAME":" ","NAME_RU":"Биджар","OFFICIAL_S":" ","PLACE":"city","A_CNTR":" ","A_PLACE":" ","A_DSTRCT":" ","A_PSTCD":" ","POPULATION":"56857","OSM_TYPE":"node","OSM_ID":235270740}},{"type":"Feature","id":45379,"geometry":{"type":"Point","coordinates":[47.918550999928755,39.646173499807219]},"properties":{"OBJECTID":45379,"NAME":"پارس آباد","NAME_EN":"Pars Abad","INT_NAME":"Parsabad","NAME_RU":"Парсабад","OFFICIAL_S":" ","PLACE":"city","A_CNTR":" ","A_PLACE":" ","A_DSTRCT":" ","A_PSTCD":" ","POPULATION":"81782","OSM_TYPE":"node","OSM_ID":231906831}},{"type":"Feature","id":45382,"geometry":{"type":"Point","coordinates":[51.007385299891723,35.812195499922439]},"properties":{"OBJECTID":45382,"NAME":"کرج","NAME_EN":"Karaj","INT_NAME":" ","NAME_RU":"Кередж","OFFICIAL_S":" ","PLACE":"city","A_CNTR":" ","A_PLACE":" ","A_DSTRCT":" ","A_PSTCD":" ","POPULATION":"1712000","OSM_TYPE":"node","OSM_ID":234526006}},{"type":"Feature","id":45383,"geometry":{"type":"Point","coordinates":[48.485939799781988,36.669980900398286]},"properties":{"OBJECTID":45383,"NAME":"زنجان","NAME_EN":"Zanjan","INT_NAME":" ","NAME_RU":"Зенджан","OFFICIAL_S":" ","PLACE":"city","A_CNTR":" ","A_PLACE":" ","A_DSTRCT":" ","A_PSTCD":" ","POPULATION":"386851","OSM_TYPE":"node","OSM_ID":32828378}},{"type":"Feature","id":45384,"geometry":{"type":"Point","coordinates":[61.494821099714045,31.027777899830255]},"properties":{"OBJECTID":45384,"NAME":"زابل","NAME_EN":"Zabol","INT_NAME":" ","NAME_RU":"Заболь","OFFICIAL_S":" ","PLACE":"city","A_CNTR":" ","A_PLACE":" ","A_DSTRCT":" ","A_PSTCD":" ","POPULATION":"140000","OSM_TYPE":"node","OSM_ID":32678220}},{"type":"Feature","id":45388,"geometry":{"type":"Point","coordinates":[52.684657100045172,36.545258099581702]},"properties":{"OBJECTID":45388,"NAME":"بابل","NAME_EN":"Babol","INT_NAME":" ","NAME_RU":"Баболь","OFFICIAL_S":" ","PLACE":"city","A_CNTR":" ","A_PLACE":" ","A_DSTRCT":" ","A_PSTCD":" ","POPULATION":"220000","OSM_TYPE":"node","OSM_ID":32674028}},{"type":"Feature","id":45391,"geometry":{"type":"Point","coordinates":[55.670471699809127,29.445868700380288]},"properties":{"OBJECTID":45391,"NAME":"سیرجان","NAME_EN":"Sirjan","INT_NAME":" ","NAME_RU":"Сирджан","OFFICIAL_S":" ","PLACE":"city","A_CNTR":" ","A_PLACE":" ","A_DSTRCT":" ","A_PSTCD":" ","POPULATION":"199704","OSM_TYPE":"node","OSM_ID":32677946}},{"type":"Feature","id":45395,"geometry":{"type":"Point","coordinates":[57.680879899687682,36.213405300414308]},"properties":{"OBJECTID":45395,"NAME":"سبزوار","NAME_EN":"Sabzevar","INT_NAME":" ","NAME_RU":"Себзевар","OFFICIAL_S":" ","PLACE":"city","A_CNTR":" ","A_PLACE":" ","A_DSTRCT":" ","A_PSTCD":" ","POPULATION":"231557","OSM_TYPE":"node","OSM_ID":32675333}},{"type":"Feature","id":45396,"geometry":{"type":"Point","coordinates":[53.058722899742065,36.56595979970507]},"properties":{"OBJECTID":45396,"NAME":"ساری","NAME_EN":"Sari","INT_NAME":" ","NAME_RU":"Сари","OFFICIAL_S":" ","PLACE":"city","A_CNTR":" ","A_PLACE":" ","A_DSTRCT":" ","A_PSTCD":" ","POPULATION":"347402","OSM_TYPE":"node","OSM_ID":32674103}},{"type":"Feature","id":45400,"geometry":{"type":"Point","coordinates":[48.403206400155284,32.378025699926184]},"properties":{"OBJECTID":45400,"NAME":"دزفول","NAME_EN":"Dezful","INT_NAME":"Dezful","NAME_RU":"Дизфуль","OFFICIAL_S":" ","PLACE":"city","A_CNTR":" ","A_PLACE":" ","A_DSTRCT":" ","A_PSTCD":" ","POPULATION":"248380","OSM_TYPE":"node","OSM_ID":32662365}},{"type":"Feature","id":45401,"geometry":{"type":"Point","coordinates":[57.06456469980111,30.292408499552664]},"properties":{"OBJECTID":45401,"NAME":"کرمان","NAME_EN":"Kerman","INT_NAME":"Kerman","NAME_RU":"Керман","OFFICIAL_S":" ","PLACE":"city","A_CNTR":" ","A_PLACE":" ","A_DSTRCT":" ","A_PSTCD":" ","POPULATION":"537718","OSM_TYPE":"node","OSM_ID":32677945}},{"type":"Feature","id":45403,"geometry":{"type":"Point","coordinates":[45.884322500183316,35.994663100221942]},"properties":{"OBJECTID":45403,"NAME":"بانه","NAME_EN":"Baneh","INT_NAME":"Bane","NAME_RU":" ","OFFICIAL_S":" ","PLACE":"city","A_CNTR":" ","A_PLACE":" ","A_DSTRCT":" ","A_PSTCD":" ","POPULATION":"110218","OSM_TYPE":"node","OSM_ID":32663613}},{"type":"Feature","id":45407,"geometry":{"type":"Point","coordinates":[48.35211369968755,32.458324999898878]},"properties":{"OBJECTID":45407,"NAME":"اندیمشک","NAME_EN":"Andimeshk","INT_NAME":" ","NAME_RU":"Эндимешк","OFFICIAL_S":" ","PLACE":"city","A_CNTR":" ","A_PLACE":" ","A_DSTRCT":" ","A_PSTCD":" ","POPULATION":"135116","OSM_TYPE":"node","OSM_ID":32662367}},{"type":"Feature","id":45410,"geometry":{"type":"Point","coordinates":[48.297486999925184,38.251423300445026]},"properties":{"OBJECTID":45410,"NAME":"اردبیل","NAME_EN":"Ardabil","INT_NAME":"Ardabil","NAME_RU":"Ардебиль","OFFICIAL_S":" ","PLACE":"city","A_CNTR":" ","A_PLACE":" ","A_DSTRCT":" ","A_PSTCD":" ","POPULATION":"482632","OSM_TYPE":"node","OSM_ID":30115597}},{"type":"Feature","id":45412,"geometry":{"type":"Point","coordinates":[50.84584430037421,28.931078600297212]},"properties":{"OBJECTID":45412,"NAME":"بوشهر","NAME_EN":"Bushehr","INT_NAME":" ","NAME_RU":"Бушер","OFFICIAL_S":" ","PLACE":"city","A_CNTR":" ","A_PLACE":" ","A_DSTRCT":" ","A_PSTCD":" ","POPULATION":"195222","OSM_TYPE":"node","OSM_ID":32826332}},{"type":"Feature","id":45413,"geometry":{"type":"Point","coordinates":[47.073589099957076,34.323941399775833]},"properties":{"OBJECTID":45413,"NAME":"کرمانشاه","NAME_EN":"Kermanshah","INT_NAME":" ","NAME_RU":"Керманшах","OFFICIAL_S":" ","PLACE":"city","A_CNTR":" ","A_PLACE":" ","A_DSTRCT":" ","A_PSTCD":" ","POPULATION":"1000000","OSM_TYPE":"node","OSM_ID":32663279}},{"type":"Feature","id":45414,"geometry":{"type":"Point","coordinates":[48.259147499957237,30.363609700127597]},"properties":{"OBJECTID":45414,"NAME":"آبادان","NAME_EN":"Abadan","INT_NAME":" ","NAME_RU":"Абадан","OFFICIAL_S":" ","PLACE":"city","A_CNTR":" ","A_PLACE":" ","A_DSTRCT":" ","A_PSTCD":" ","POPULATION":"231476","OSM_TYPE":"node","OSM_ID":32826329}},{"type":"Feature","id":45415,"geometry":{"type":"Point","coordinates":[57.331988099870955,37.475975200395226]},"properties":{"OBJECTID":45415,"NAME":"بجنورد","NAME_EN":"Bojnurd","INT_NAME":" ","NAME_RU":"Боджнурд","OFFICIAL_S":" ","PLACE":"city","A_CNTR":" ","A_PLACE":" ","A_DSTRCT":" ","A_PSTCD":" ","POPULATION":"207196","OSM_TYPE":"node","OSM_ID":32826331}},{"type":"Feature","id":45417,"geometry":{"type":"Point","coordinates":[45.721813599917766,36.765173899755723]},"properties":{"OBJECTID":45417,"NAME":"مهاباد","NAME_EN":"Mahabad","INT_NAME":" ","NAME_RU":"Мехабад","OFFICIAL_S":" ","PLACE":"city","A_CNTR":" ","A_PLACE":" ","A_DSTRCT":" ","A_PSTCD":" ","POPULATION":"215529","OSM_TYPE":"node","OSM_ID":32673155}},{"type":"Feature","id":45418,"geometry":{"type":"Point","coordinates":[58.356566299595102,29.105986399652693]},"properties":{"OBJECTID":45418,"NAME":"بم","NAME_EN":"Bam","INT_NAME":" ","NAME_RU":"Бам","OFFICIAL_S":" ","PLACE":"city","A_CNTR":" ","A_PLACE":" ","A_DSTRCT":" ","A_PSTCD":" ","POPULATION":"127396","OSM_TYPE":"node","OSM_ID":32678002}},{"type":"Feature","id":45421,"geometry":{"type":"Point","coordinates":[50.35848340038865,35.020613299764022]},"properties":{"OBJECTID":45421,"NAME":"ساوه","NAME_EN":"Saveh","INT_NAME":"Saveh","NAME_RU":"Саве","OFFICIAL_S":" ","PLACE":"city","A_CNTR":" ","A_PLACE":" ","A_DSTRCT":" ","A_PSTCD":" ","POPULATION":"300000","OSM_TYPE":"node","OSM_ID":32637964}},{"type":"Feature","id":45422,"geometry":{"type":"Point","coordinates":[59.217729399891937,32.863396099850206]},"properties":{"OBJECTID":45422,"NAME":"بیرجند","NAME_EN":"Birjand","INT_NAME":" ","NAME_RU":"Бирдженд","OFFICIAL_S":" ","PLACE":"city","A_CNTR":" ","A_PLACE":" ","A_DSTRCT":" ","A_PSTCD":" ","POPULATION":"203636","OSM_TYPE":"node","OSM_ID":32677634}},{"type":"Feature","id":45425,"geometry":{"type":"Point","coordinates":[50.849736899838092,32.325736599864229]},"properties":{"OBJECTID":45425,"NAME":"شهرکرد","NAME_EN":"Shahr-e Kord","INT_NAME":" ","NAME_RU":"Шехре-Корд","OFFICIAL_S":" ","PLACE":"city","A_CNTR":" ","A_PLACE":" ","A_DSTRCT":" ","A_PSTCD":" ","POPULATION":"159775","OSM_TYPE":"node","OSM_ID":32676699}},{"type":"Feature","id":45428,"geometry":{"type":"Point","coordinates":[46.270522700262461,36.242745600329272]},"properties":{"OBJECTID":45428,"NAME":"سقز","NAME_EN":"Saqqez","INT_NAME":" ","NAME_RU":"Секкез","OFFICIAL_S":" ","PLACE":"city","A_CNTR":" ","A_PLACE":" ","A_DSTRCT":" ","A_PSTCD":" ","POPULATION":"140000","OSM_TYPE":"node","OSM_ID":32673030}},{"type":"Feature","id":45430,"geometry":{"type":"Point","coordinates":[58.792280499645415,36.210594999959312]},"properties":{"OBJECTID":45430,"NAME":"نیشابور","NAME_EN":"Neyshabur","INT_NAME":" ","NAME_RU":"Нишапур","OFFICIAL_S":" ","PLACE":"city","A_CNTR":" ","A_PLACE":" ","A_DSTRCT":" ","A_PSTCD":" ","POPULATION":"264375","OSM_TYPE":"node","OSM_ID":32675715}}]}